[
  {
    "id": 1,
    "name": "Park Hayarkon Trail",
    "latitude": 32.0961,
    "longitude": 34.809,
    "length_km": 4.5,
    "closest_city": "Tel Aviv",
    "image_url": "/experience/images/default-stridequest.jpg",
    "gpx_file": "park-yarkon.gpx",
    "history": "Park Hayarkon was once a seasonal swamp before being transformed into Tel Aviv's largest green space.",
    "checkpoints": [
      {
        "lat": 32.097328,
        "lon": 34.793244,
        "title": "Yarkon Springs",
        "quiz": {
          "question": "What natural feature used to dominate this area?",
          "options": [
            "Forest",
            "Swamp",
            "Desert",
            "Lake"
          ],
          "answer": "Swamp"
        },
        "challenge": {
          "type": "photo",
          "keyword": "springs",
          "prompt": "Take a photo of the Yarkon Springs and add a short summary."
        }
      },
      {
        "lat": 32.095733,
        "lon": 34.778732,
        "title": "Bicycle Bridge",
        "quiz": {
          "question": "Which mode of transport is this bridge primarily designed for?",
          "options": [
            "Cars",
            "Trains",
            "Bicycles",
            "Pedestrians"
          ],
          "answer": "Bicycles"
        }
      },
      {
        "lat": 32.09802,
        "lon": 34.777602,
        "title": "Picnic Grove",
        "quiz": {
          "question": "What activity is common in this area?",
          "options": [
            "Camping",
            "Surfing",
            "Picnicking",
            "Skiing"
          ],
          "answer": "Picnicking"
        }
      },
      {
        "lat": 32.096863,
        "lon": 34.783183,
        "title": "Birdwatch Point",
        "quiz": {
          "question": "Which of these birds is often seen here?",
          "options": [
            "Eagle",
            "Seagull",
            "Pelican",
            "Sparrow"
          ],
          "answer": "Sparrow"
        }
      },
      {
        "lat": 32.098652,
        "lon": 34.795573,
        "title": "Riverside Exit",
        "quiz": {
          "question": "Where does this trail lead you back to?",
          "options": [
            "City Center",
            "Riverside",
            "Mountain Top",
            "Desert"
          ],
          "answer": "Riverside"
        }
      }
    ]
  },
  {
    "id": 2,
    "name": "Caesarea Aqueduct Trail",
    "latitude": 32.5071,
    "longitude": 34.8928,
    "length_km": 2.3,
    "closest_city": "Caesarea",
    "image_url": "/experience/images/caesarea.jpg",
    "gpx_file": "caesarea.gpx",
    "history": "This trail runs alongside an ancient Roman aqueduct that once supplied water to the city of Caesarea, built by Herod the Great.",
    "checkpoints": [
      {
        "lat": 32.523149,
        "lon": 34.898669,
        "title": "Roman Aqueduct",
        "quiz": {
          "question": "Who built the city of Caesarea?",
          "options": [
            "Pontius Pilate",
            "Herod the Great",
            "Julius Caesar",
            "King David"
          ],
          "answer": "Herod the Great"
        },
        "challenge": {
          "type": "photo",
          "keyword": "aqueduct",
          "prompt": "Take a photo of the Roman Aqueduct and add a short summary."
        }
      },
      {
        "lat": 32.530525,
        "lon": 34.901126,
        "title": "Ancient Harbor",
        "quiz": {
          "question": "What empire built the original harbor here?",
          "options": [
            "Roman",
            "Ottoman",
            "British",
            "Greek"
          ],
          "answer": "Roman"
        }
      },
      {
        "lat": 32.537635,
        "lon": 34.901613,
        "title": "Crusader Gate",
        "quiz": {
          "question": "In which era was this gate constructed?",
          "options": [
            "Byzantine",
            "Crusader",
            "Mamluk",
            "Modern"
          ],
          "answer": "Crusader"
        }
      },
      {
        "lat": 32.532269,
        "lon": 34.900966,
        "title": "Museum Plaza",
        "quiz": {
          "question": "What type of museum is nearby?",
          "options": [
            "Art",
            "Maritime",
            "Science",
            "Fashion"
          ],
          "answer": "Maritime"
        }
      },
      {
        "lat": 32.523366,
        "lon": 34.898675,
        "title": "Beach Lookout",
        "quiz": {
          "question": "What sea are you overlooking?",
          "options": [
            "Dead Sea",
            "Mediterranean Sea",
            "Red Sea",
            "Sea of Galilee"
          ],
          "answer": "Mediterranean Sea"
        }
      }
    ]
  },
  {
    "id": 3,
    "name": "Masada Snake Path",
    "latitude": 31.3156,
    "longitude": 35.3531,
    "length_km": 2.0,
    "closest_city": "Masada",
    "image_url": "/experience/images/yarkon.jpg",
    "gpx_file": "masada-snake-path.gpx",
    "history": "The Snake Path is a historical ascent to Masada, where Jewish rebels made a final stand against Rome in 73 CE.",
    "checkpoints": [
      {
        "lat": 31.31341,
        "lon": 35.361951,
        "title": "Snake Path Viewpoint",
        "quiz": {
          "question": "When did the siege of Masada take place?",
          "options": [
            "70 CE",
            "66 CE",
            "73 CE",
            "80 CE"
          ],
          "answer": "73 CE"
        },
        "challenge": {
          "type": "photo",
          "keyword": "viewpoint",
          "prompt": "Take a photo of the Snake Path Viewpoint and add a short summary."
        }
      },
      {
        "lat": 31.313521,
        "lon": 35.358985,
        "title": "Eastern Rampart",
        "quiz": {
          "question": "Which group fortified Masada?",
          "options": [
            "Romans",
            "Jews",
            "Nabateans",
            "Byzantines"
          ],
          "answer": "Jews"
        }
      },
      {
        "lat": 31.314953,
        "lon": 35.358766,
        "title": "Northern Palace",
        "quiz": {
          "question": "Who built the Northern Palace?",
          "options": [
            "Herod the Great",
            "King David",
            "Caesar Augustus",
            "Pontius Pilate"
          ],
          "answer": "Herod the Great"
        }
      },
      {
        "lat": 31.315928,
        "lon": 35.35676,
        "title": "Water Cisterns",
        "quiz": {
          "question": "What resource was stored here?",
          "options": [
            "Wine",
            "Grain",
            "Water",
            "Oil"
          ],
          "answer": "Water"
        }
      },
      {
        "lat": 31.316485,
        "lon": 35.3556,
        "title": "Summit Fortress",
        "quiz": {
          "question": "What was Masada primarily used for?",
          "options": [
            "Market",
            "Fortress",
            "Palace",
            "Temple"
          ],
          "answer": "Fortress"
        }
      }
    ]
  },
  {
    "id": 4,
    "name": "Tel Aviv Port Loop",
    "latitude": 32.096,
    "longitude": 34.7736,
    "length_km": 3.1,
    "closest_city": "Tel Aviv",
    "image_url": "/experience/images/default-stridequest.jpg",
    "gpx_file": "telaviv-port-loop.gpx",
    "history": "The Tel Aviv Port was once Israel's main gateway for maritime trade and is now a recreational hub with deep historical roots.",
    "checkpoints": [
      {
        "lat": 32.099011,
        "lon": 34.773031,
        "title": "Old Port Warehouse",
        "quiz": {
          "question": "What was the original function of the Tel Aviv Port?",
          "options": [
            "Fishing",
            "Trade",
            "Military base",
            "Shipbuilding"
          ],
          "answer": "Trade"
        },
        "challenge": {
          "type": "photo",
          "keyword": "warehouse",
          "prompt": "Take a photo of the Old Port Warehouse and add a short summary."
        }
      },
      {
        "lat": 32.094551,
        "lon": 34.772554,
        "title": "Hangar 11",
        "quiz": {
          "question": "What is Hangar 11 now used for?",
          "options": [
            "Events",
            "Storage",
            "Military",
            "Housing"
          ],
          "answer": "Events"
        }
      },
      {
        "lat": 32.087804,
        "lon": 34.769449,
        "title": "Promenade Start",
        "quiz": {
          "question": "Which recreational activity is popular here?",
          "options": [
            "Cycling",
            "Skiing",
            "Rock Climbing",
            "Paragliding"
          ],
          "answer": "Cycling"
        }
      },
      {
        "lat": 32.090042,
        "lon": 34.77008,
        "title": "Lighthouse Point",
        "quiz": {
          "question": "What structure once guided ships here?",
          "options": [
            "Fortress",
            "Lighthouse",
            "Skyscraper",
            "Windmill"
          ],
          "answer": "Lighthouse"
        }
      },
      {
        "lat": 32.097116,
        "lon": 34.774043,
        "title": "Farmers Market",
        "quiz": {
          "question": "What can you buy here weekly?",
          "options": [
            "Electronics",
            "Fresh produce",
            "Cars",
            "Furniture"
          ],
          "answer": "Fresh produce"
        }
      }
    ]
  },
  {
    "id": 5,
    "name": "HodHasharon Park Loop",
    "latitude": 32.1327,
    "longitude": 34.8915,
    "length_km": 3.1,
    "closest_city": "HodHasharon",
    "image_url": "/experience/images/HodHaSharonPark.jpg",
    "gpx_file": "hod-hasharon-park.gpx",
    "history": "Once a swamp and city landfill, this transformed park now offers scenic hiking trails through eucalyptus groves and around an ecological lake. Enjoy wildlife sightings, educational signs, and panoramic views from the repurposed hilltop.",
      "checkpoints": [
        {
          "lat": 32.132618,
          "lon": 34.892177,
          "title": "Park Entrance",
          "quiz": {
            "question": "What stood here before the park was created?",
            "options": [
              "Shopping mall",
              "Landfill",
              "Palace",
              "Factory"
            ],
            "answer": "Landfill"
          },
          "challenge": {
            "type": "photo",
            "keyword": "entrance",
            "prompt": "Snap a photo of the entrance sign."
          }
        },
        {
          "lat": 32.132775,
          "lon": 34.889465,
          "title": "Lake View",
          "quiz": {
            "question": "Which feature borders this path?",
            "options": [
              "Desert",
              "Ecological lake",
              "Skyscrapers",
              "Train station"
            ],
            "answer": "Ecological lake"
          }
        },
        {
          "lat": 32.132868,
          "lon": 34.888259,
          "title": "Eucalyptus Grove",
          "quiz": {
            "question": "Which trees are plentiful in this area?",
            "options": [
              "Pine",
              "Eucalyptus",
              "Maple",
              "Palm"
            ],
            "answer": "Eucalyptus"
          }
        },
        {
          "lat": 32.132557,
          "lon": 34.887048,
          "title": "Hilltop Lookout",
          "quiz": {
            "question": "What can you see from this hilltop?",
            "options": [
              "Snowy peaks",
              "Panoramic park views",
              "Beachfront",
              "Shopping mall"
            ],
            "answer": "Panoramic park views"
          }
        },
        {
          "lat": 32.132639,
          "lon": 34.892163,
          "title": "Return Gate",
          "quiz": {
            "question": "What does this gate lead back to?",
            "options": [
              "Museum",
              "Park entrance",
              "Zoo",
              "Castle"
            ],
            "answer": "Park entrance"
          }
        }
      ]
  },
  {
    "id" : 6,
    "name": "HouseWalk",
    "latitude": 32.1670,
    "longitude": 34.8046,
    "length_km": 0.26,
    "closest_city": "Herzliya",
    "image_url": "/experience/images/default-stridequest.jpg",
    "gpx_file": "herzlyia-walk.gpx",
    "history": "HouseWalk is a unique trail in Herzliya.",
    "checkpoints": [
      {
        "lat": 32.1670,
        "lon": 34.8046,
        "title": "HouseWalk Start",
        "quiz": {
          "question": "What is the main feature of HouseWalk?",
          "options": [
            "Historical buildings",
            "Modern architecture",
            "Natural landscapes",
            "Cultural monuments"
          ],
          "answer": "Modern architecture"
        },
        "challenge": {
          "type": "photo",
          "keyword": "start",
          "prompt": "Take a photo of the HouseWalk sign."
        }
      },
      {
        "lat": 32.1671,
        "lon": 34.8047,
        "title": "Architectural Marvel",
        "quiz": {
          "question": "Which style is prominent in this area?",
          "options": [
            "Gothic",
            "Modernist",
            "Baroque",
            "Renaissance"
          ],
          "answer": "Modernist"
        }
      },
      {
        "lat": 32.1663,
        "lon": 34.8039,
        "title": "Cultural Hub",
        "quiz": {
          "question": "What type of events are commonly held here?",
          "options": [
            "Music concerts",
            "Art exhibitions",
            "Food festivals",
            "Sports events"
          ],
          "answer": "Art exhibitions"
        }
      },
      {
        "lat": 32.1667,
        "lon": 34.8038,
        "title": "Community Spot",
        "quiz": {
          "question": "What is a popular activity in this area?",
          "options": [
            "Jogging",
            "Shopping",
            "Dining out",
            "Cycling"
          ],
          "answer": "Dining out"
        }
      },
      {
        "lat": 32.1674,
        "lon": 34.8050,
        "title": "HouseWalk End",
        "quiz": {
          "question": "What is the significance of HouseWalk?",
          "options": [
            "Historical significance",
            "Architectural innovation",
            "Cultural diversity",
            "Natural beauty"
          ],
          "answer": "Architectural innovation"
        }
      }
    ]

  }
]
